id,category_id,name,description,address,arrondissement,latitude,longitude,contact_telephone,contact_email,contact_website,type,capacity,historical_info,accessibility,amenities,created_at,updated_at
1,2,"Musée des Beaux-Arts de Lyon","Musée d'art ancien et moderne","20 Place des Terreaux",Lyon 1er,45.7675,4.8364,04 72 10 17 40,,http://www.mba-lyon.fr,"Musée",1000,"Fondé en 1801, installé dans l'ancienne abbaye des Dames de Saint-Pierre","Accès PMR; Ascenseur","Café; Restaurant; Boutique; Bibliothèque; Visites guidées",2025-05-24T00:46:16.330687,2025-05-24T00:46:16.330720
2,2,"Musée d'Art Contemporain","Musée d'art contemporain","81 Quai Charles de Gaulle",Lyon 6ème,45.7489,4.8317,04 72 69 17 17,,http://www.mac-lyon.com,"Musée",800,"Ouvert en 1984, situé dans le Parc de la Tête d'Or","Accès PMR; Ascenseur","Café; Restaurant; Boutique; Bibliothèque; Visites guidées",2025-05-24T00:46:16.330752,2025-05-24T00:46:16.330754
3,2,"Musée des Confluences","Musée des sciences et des sociétés","86 Quai Perrache",Lyon 2ème,45.7397,4.8225,04 28 38 12 12,,http://www.museedesconfluences.fr,"Musée",2000,"Ouvert en 2014, architecture contemporaine de Coop Himmelb(l)au","Accès PMR; Ascenseur","Café; Restaurant; Boutique; Bibliothèque; Visites guidées",2025-05-24T00:46:16.330763,2025-05-24T00:46:16.330764
4,2,"Institut d'Art Contemporain","Centre d'art contemporain","11 Rue Docteur Dolard",Villeurbanne,45.7289,4.8675,04 78 03 47 00,,http://www.i-ac.eu,"Centre d'art",300,"Fondé en 1978, centre d'art contemporain de référence","Accès PMR; Ascenseur","Bibliothèque; Visites guidées",2025-05-24T00:46:16.330770,2025-05-24T00:46:16.330770
5,2,"Galerie Le Réverbère","Galerie d'art contemporain","38 Rue Burdeau",Lyon 1er,45.7525,4.8417,04 78 39 09 26,,http://www.galerie-reverbere.com,"Galerie",100,"Fondée en 1977, galerie historique de l'art contemporain","Accès PMR","Visites guidées",2025-05-24T00:46:16.330779,2025-05-24T00:46:16.330780
6,2,"Espace d'Art Contemporain Confluence","Centre d'art contemporain","28 Rue Victor Hugo",Lyon 2ème,45.7517,4.8417,04 78 38 65 40,,http://www.eac-confluence.fr,"Centre d'art",200,"Ouvert en 2010, espace dédié à l'art contemporain","Accès PMR; Ascenseur","Bibliothèque; Visites guidées",2025-05-24T00:46:16.330788,2025-05-24T00:46:16.330789
7,2,"Galerie Slika","Galerie d'art contemporain","53 Rue des Martyrs",Lyon 3ème,45.7833,4.9167,04 78 62 48 00,,http://www.galerie-slika.com,"Galerie",150,"Fondée en 2006, galerie spécialisée en art contemporain","Accès PMR","Visites guidées",2025-05-24T00:46:16.330798,2025-05-24T00:46:16.330799
